{
  "store-selector": {
    "props": {
      "country": "CRI",
      "googleMapskey": "AIzaSyBkfKiZpVlezmcE1ywp8T3XYTh9HyuDS5o",
      "storesArr": [
        {
          "name": "MXM Alajuela",
          "__editorItemTitle": "MXM Alajuela",
          "sellerId": "crsp3031",
          "provincia": "Alajuela",
          "canton": "Alajuela",
          "distrito": "Alajuela",
          "address": "Del Restaurante Mcdonalds 250 Mts. Sur, Barrio La Tropicana",
          "location": { "lng": -84.21079999, "lat": 10.00969999 },
          "postalCode": "20101"
        },
        {
          "name": "MXM Barrio San Jose",
          "__editorItemTitle": "MXM Barrio San Jose",
          "sellerId": "crsp4430",
          "provincia": "Alajuela",
          "canton": "Alajuela",
          "distrito": "San José",
          "address": "125 Metros Oeste Del Mega Super De Barrio San Jose, Alajuela.",
          "location": { "lng": -84.23763123, "lat": 10.01127834 },
          "postalCode": "20102"
        },
        {
          "name": "MXM Grecia",
          "__editorItemTitle": "MXM Grecia",
          "sellerId": "crsp736",
          "provincia": "Alajuela",
          "canton": "Grecia",
          "distrito": "Grecia",
          "address": "Grecia, Alajuela Sobre Radial Armando Kopper Vega, 1.6 Km Al Suroeste Del Hospital San Francisco De Asís.",
          "location": { "lng": -84.33075721, "lat": 10.06421604 },
          "postalCode": "20301"
        },
        {
          "name": "MXM San Ramon",
          "__editorItemTitle": "MXM San Ramon",
          "sellerId": "crsp4429",
          "provincia": "Alajuela",
          "canton": "San Ramón",
          "distrito": "San Rafael",
          "address": "Next To The Gas Station, Main Entrance To San Ramón",
          "location": { "lng": -84.46930327, "lat": 10.08117515 },
          "postalCode": "20201"
        },
        {
          "name": "MXM Tejar",
          "__editorItemTitle": "MXM Tejar",
          "pickupOnly": true,
          "sellerId": "crsp776",
          "provincia": "Cartago",
          "canton": "El Guarco",
          "distrito": "Tejar",
          "address": "100 Mtrs  Este De Riteve, Tejar",
          "location": { "lng": -83.953175, "lat": 9.844694 },
          "postalCode": "30801"
        },
        {
          "name": "MxM CARTAGO",
          "__editorItemTitle": "MxM CARTAGO",
          "sellerId": "crsp3030",
          "provincia": "Cartago",
          "canton": "Cartago",
          "distrito": "Occidental",
          "address": "Centro Comercial Metrocentro, Ave 4 Entrada A Cartago Esquina Opuesta Al Cementerio General",
          "location": { "lng": -83.9303999917232, "lat": 9.86799999354706 },
          "postalCode": "30102"
        },
        {
          "name": "MXM TRES RIOS",
          "__editorItemTitle": "MXM TRES RIOS",
          "pickupOnly": true,
          "sellerId": "crsp4243",
          "provincia": "Cartago",
          "canton": "La Unión",
          "distrito": "Tres Ríos",
          "address": "100 M Este Del Cementerio De Tres Rios",
          "location": { "lng": -83.9888830805937, "lat": 9.90839860202105 },
          "postalCode": "30301"
        },
        {
          "name": "MxM HEREDIA",
          "__editorItemTitle": "MxM HEREDIA",
          "sellerId": "crsp3036",
          "provincia": "Heredia",
          "canton": "Heredia",
          "distrito": "Heredia",
          "address": "Del Mercado Central 50 Mts. Este, Frente A Panadería Leandro",
          "location": { "lng": -84.1188999914052, "lat": 9.99619999327079 },
          "postalCode": "40101"
        },
        {
          "name": "MxM SAN JOAQUIN",
          "__editorItemTitle": "MxM SAN JOAQUIN",
          "pickupOnly": true,
          "sellerId": "crsp4426",
          "provincia": "Heredia",
          "canton": "Heredia",
          "distrito": "San Francisco",
          "address": "300 Mts Oeste Del Puente De San Joaquin De Flores, Heredia.",
          "location": { "lng": -84.148295365453, "lat": 9.99956051298314 },
          "postalCode": "40103"
        },
        {
          "name": "MXM SAN PABLO NORTE",
          "__editorItemTitle": "MXM SAN PABLO NORTE",
          "sellerId": "crsp4431",
          "provincia": "Heredia",
          "canton": "San Pablo",
          "distrito": "San Pablo",
          "address": "200 East, 1,000 S. From San Rafael Catholic Church, 503 Highway",
          "location": { "lng": -84.0928101263456, "lat": 10.0049376222822 },
          "postalCode": "40901"
        },
        {
          "name": "MxM SANTO DOMINGO HEREDIA",
          "__editorItemTitle": "MxM SANTO DOMINGO HEREDIA",
          "sellerId": "crsp4005",
          "provincia": "Heredia",
          "canton": "Santo Domingo",
          "distrito": "San Vicente",
          "address": "Entrada Principal A Urbanizacion Quizarco",
          "location": { "lng": -84.0854999914516, "lat": 9.98449999330961 },
          "postalCode": "40302"
        },
        {
          "name": "MXM BELEN",
          "__editorItemTitle": "MXM BELEN",
          "sellerId": "crsp4216",
          "provincia": "Heredia",
          "canton": "Belen",
          "distrito": "San Antonio",
          "address": "500 Este Municipalidad De Belen, Frente A Pedregal",
          "location": { "lng": -84.1788697037608, "lat": 9.98007899784663 },
          "postalCode": "40701"
        },
        {
          "name": "MxM HEREDIA SUR",
          "__editorItemTitle": "MxM HEREDIA SUR",
          "sellerId": "crsp4404",
          "provincia": "Heredia",
          "canton": "Heredia",
          "distrito": "Ulloa",
          "address": "Frente Al Condominio Los Sauces",
          "location": { "lng": -84.128811, "lat": 9.988603 },
          "postalCode": "40104"
        },
        {
          "name": "MXM GUAPILES",
          "__editorItemTitle": "MXM GUAPILES",
          "sellerId": "crsp3038",
          "provincia": "Limon",
          "canton": "Pococi",
          "distrito": "Guapiles",
          "address": "De La Iglesia Católica De Guápiles 500 Mts. Este",
          "location": { "lng": -83.7844999915668, "lat": 10.2132999933491 },
          "postalCode": "70201"
        },
        {
          "name": "MXM LIMÓN",
          "__editorItemTitle": "MXM LIMÓN",
          "sellerId": "crsp3039",
          "provincia": "Limon",
          "canton": "Limon",
          "distrito": "Limon",
          "address": "Diagonal Al Costado Noroeste Del Mercado Municipal De Limón",
          "location": { "lng": -83.0261999925919, "lat": 9.99269999419567 },
          "postalCode": "70101"
        },
        {
          "name": "MxM JACO",
          "__editorItemTitle": "MxM JACO",
          "sellerId": "crsp3040",
          "provincia": "Puntarenas",
          "canton": "Garabito",
          "distrito": "Jaco",
          "address": "De La Agencia Del Banco Nacional De Costa Rica, 50 Mts. Al Sureste",
          "location": { "lng": -84.6265556746784, "lat": 9.61327431148493 },
          "postalCode": "61101"
        },
        {
          "name": "MXM GRANJA",
          "__editorItemTitle": "MXM GRANJA",
          "sellerId": "crsp3025",
          "pickupOnly": true,
          "provincia": "San José",
          "canton": "Montes de Oca",
          "distrito": "San Pedro",
          "address": "Contiguo A La Estación De Servicio El Higuerón",
          "location": { "lng": -84.0472999833149, "lat": 9.93109998704434 },
          "postalCode": "11501"
        },
        {
          "name": "MxM SAN GERARDO",
          "__editorItemTitle": "MxM SAN GERARDO",
          "sellerId": "crsp3028",
          "provincia": "San José",
          "canton": "Goicoechea",
          "distrito": "Guadalupe",
          "address": "Centro Comercial Novacentro, Del Cruce De Moravia 125 Mts. Norte",
          "location": { "lng": -84.0499999832726, "lat": 9.95129998700234 },
          "postalCode": "10801"
        },
        {
          "name": "MxM SABANA",
          "__editorItemTitle": "MxM SABANA",
          "sellerId": "crsp3043",
          "provincia": "San José",
          "canton": "San José",
          "distrito": "Merced",
          "address": "Calle 42 Avenida 5, Frente Al Hotel Corobicí",
          "location": { "lng": -84.0975999831921, "lat": 9.93939998694471 },
          "postalCode": "10102"
        },
        {
          "name": "MXM HACIENDA VIEJA",
          "__editorItemTitle": "MXM HACIENDA VIEJA",
          "sellerId": "crsp719",
          "provincia": "San José",
          "canton": "Curridabat",
          "distrito": "Curridabat",
          "address": " Curridabat, San Jose Hacienda Vieja De Curridabat, 300 Este Del Puente De Tirrases",
          "location": { "lng": -84.037761, "lat": 9.909141 },
          "postalCode": "11801"
        },
        {
          "name": "MxM GUAYABOS",
          "__editorItemTitle": "MxM GUAYABOS",
          "sellerId": "crsp777",
          "provincia": "San José",
          "canton": "Curridabat",
          "distrito": "Curridabat",
          "address": "Curridabat, San Jose Frente Al Condominio Golfside, Curridabat",
          "location": { "lng": -84.018612, "lat": 9.926649 },
          "postalCode": "11801"
        },
        {
          "name": "MxM SABANILLA",
          "__editorItemTitle": "MxM SABANILLA",
          "sellerId": "crsp3032",
          "provincia": "San José",
          "canton": "Montes de Oca",
          "distrito": "Sabanilla",
          "address": "De La Iglesia Católica De Sabanilla 50 Mts. Oeste",
          "location": { "lng": -84.0342999833186, "lat": 9.94449998704122 },
          "postalCode": "11502"
        },
        {
          "name": "MxM CORONADO",
          "__editorItemTitle": "MxM CORONADO",
          "sellerId": "crsp3033",
          "provincia": "San José",
          "canton": "Vazquez de Coronado",
          "distrito": "San Isidro",
          "address": "De La Clínica Del Seguro Social De Coronado, 300 Mts. Norte",
          "location": { "lng": -84.0102999915426, "lat": 9.97309999338322 },
          "postalCode": "11101"
        },
        {
          "name": "MxM SANTA ANA",
          "__editorItemTitle": "MxM SANTA ANA",
          "sellerId": "crsp4076",
          "provincia": "San José",
          "canton": "Santa Ana",
          "distrito": "Santa Ana",
          "address": "200 Meters North From Croos The Cruz Roja",
          "location": { "lng": -84.1879999913845, "lat": 9.93729999326793 },
          "postalCode": "10901"
        },
        {
          "name": "MXM GUACHIPELIN",
          "__editorItemTitle": "MXM GUACHIPELIN",
          "sellerId": "crsp4330",
          "provincia": "San José",
          "canton": "San Rafael",
          "distrito": "San Rafael",
          "address": "300 Norte Del Centro De Compras Paco",
          "location": { "lng": -84.1495183196431, "lat": 9.93451546352381 },
          "postalCode": "10203"
        },
        {
          "name": "MxM CIUDAD COLON",
          "__editorItemTitle": "MxM CIUDAD COLON",
          "pickupOnly": true,
          "sellerId": "crsp4424",
          "provincia": "San José",
          "canton": "Mora",
          "distrito": "Colon",
          "address": "200 M Norte Del Rancho De Johel",
          "location": { "lng": -84.2422291484581, "lat": 9.92160909843749 },
          "postalCode": "10701"
        },
        {
          "name": "MXM DESAMPARADOS",
          "__editorItemTitle": "MXM DESAMPARADOS",
          "sellerId": "crsp3024",
          "provincia": "San José",
          "canton": "Desamparados",
          "distrito": "Desamparados",
          "address": "Centro Comercial Desamparados, Frente Al Liceo Monseñor Sanabria Odio",
          "location": { "lng": -84.0679999833273, "lat": 9.89959998706792 },
          "postalCode": "10301"
        }
      ]
    }
  }
}
